{"type":"FeatureCollection","features":[{"type":"Feature","geometry":{"type":"Point","coordinates":[18.3103,7.3089]},"properties":{"iso3":"CAF","pcode":"CAFs005246","gis_name":"Dihiri 2","name_alt":null,"adm1_pcode":"20CAF032","adm2_pcode":"20CAF032001","loc_type":"POC","loc_subtype":"Planned Settlement","pop_type":"IDP","hierarchy_pcode":"20CAF032001013","footnote":null,"source":"UNHCR "}},{"type":"Feature","geometry":{"type":"Point","coordinates":[25.1294,5.0243]},"properties":{"iso3":"CAF","pcode":"CAFs033258","gis_name":"Site D","name_alt":" ","adm1_pcode":"20CAF063","adm2_pcode":"20CAF063004","loc_type":"POC","loc_subtype":"Spontaneous Location","pop_type":"IDP","hierarchy_pcode":"20CAF063004005","footnote":" ","source":"UNHCR "}},{"type":"Feature","geometry":{"type":"Point","coordinates":[25.1319,5.0323]},"properties":{"iso3":"CAF","pcode":"CAFs033263","gis_name":"Zemio","name_alt":" ","adm1_pcode":"20CAF063","adm2_pcode":"20CAF063004","loc_type":"POC","loc_subtype":"Planned Settlement","pop_type":"IDP","hierarchy_pcode":"20CAF063004006","footnote":" ","source":"UNHCR "}},{"type":"Feature","geometry":{"type":"Point","coordinates":[18.4788,6.8074]},"properties":{"iso3":"CAF","pcode":"CAFs033256","gis_name":"Kawa","name_alt":" ","adm1_pcode":"20CAF032","adm2_pcode":"20CAF032003","loc_type":"POC","loc_subtype":"Planned Settlement","pop_type":"IDP","hierarchy_pcode":"20CAF032003015","footnote":" ","source":"UNHCR "}},{"type":"Feature","geometry":{"type":"Point","coordinates":[18.8419,7.2597]},"properties":{"iso3":"CAF","pcode":"CAFs005207","gis_name":"Ngamna","name_alt":null,"adm1_pcode":"20CAF032","adm2_pcode":"20CAF032004","loc_type":"POC","loc_subtype":"Planned Settlement","pop_type":"IDP","hierarchy_pcode":"20CAF032004010","footnote":null,"source":"UNHCR "}},{"type":"Feature","geometry":{"type":"Point","coordinates":[23.909,4.9887]},"properties":{"iso3":"CAF","pcode":"CAFs033241","gis_name":"Site Aim","name_alt":" ","adm1_pcode":"20CAF062","adm2_pcode":"20CAF062005","loc_type":"POC","loc_subtype":"Planned Settlement","pop_type":"IDP","hierarchy_pcode":"20CAF062005004","footnote":" ","source":"IOM "}},{"type":"Feature","geometry":{"type":"Point","coordinates":[18.3312,7.4382]},"properties":{"iso3":"CAF","pcode":"CAFs033264","gis_name":"Alternatif","name_alt":" ","adm1_pcode":"20CAF032","adm2_pcode":"20CAF032001","loc_type":"POC","loc_subtype":"Planned Settlement","pop_type":"IDP","hierarchy_pcode":"20CAF032001006","footnote":" ","source":"UNHCR "}},{"type":"Feature","geometry":{"type":"Point","coordinates":[18.5059,6.8335]},"properties":{"iso3":"CAF","pcode":"CAFs033257","gis_name":"Kozoro 2","name_alt":" ","adm1_pcode":"20CAF032","adm2_pcode":"20CAF032003","loc_type":"POC","loc_subtype":"Planned Settlement","pop_type":"IDP","hierarchy_pcode":"20CAF032003017","footnote":" ","source":"UNHCR "}},{"type":"Feature","geometry":{"type":"Point","coordinates":[26.6097,5.2115]},"properties":{"iso3":"CAF","pcode":"CAFs005187","gis_name":"Ligoua","name_alt":null,"adm1_pcode":"20CAF063","adm2_pcode":"20CAF063003","loc_type":"POC","loc_subtype":"Planned Settlement","pop_type":"IDP","hierarchy_pcode":"20CAF063003007","footnote":null,"source":"UNHCR "}},{"type":"Feature","geometry":{"type":"Point","coordinates":[18.6319,7.7006]},"properties":{"iso3":"CAF","pcode":"CAFs005221","gis_name":"Site B","name_alt":null,"adm1_pcode":"20CAF032","adm2_pcode":"20CAF032004","loc_type":"POC","loc_subtype":"Planned Settlement","pop_type":"IDP","hierarchy_pcode":"20CAF032004012","footnote":null,"source":"UNHCR "}},{"type":"Feature","geometry":{"type":"Point","coordinates":[21.3326,4.8829]},"properties":{"iso3":"CAF","pcode":"CAFs033273","gis_name":"Maloum","name_alt":" ","adm1_pcode":"20CAF061","adm2_pcode":"20CAF061001","loc_type":"POC","loc_subtype":"Planned Settlement","pop_type":"IDP","hierarchy_pcode":"20CAF061001008","footnote":" ","source":"UNHCR "}},{"type":"Feature","geometry":{"type":"Point","coordinates":[20.6877,5.7644]},"properties":{"iso3":"CAF","pcode":"CAFs033275","gis_name":"Elevage","name_alt":" ","adm1_pcode":"20CAF043","adm2_pcode":"20CAF043002","loc_type":"POC","loc_subtype":"Planned Settlement","pop_type":"IDP","hierarchy_pcode":"20CAF043002010","footnote":" ","source":"IOM "}},{"type":"Feature","geometry":{"type":"Point","coordinates":[22.8222,4.7401]},"properties":{"iso3":"CAF","pcode":"CAFs033239","gis_name":"Site Catholique","name_alt":" ","adm1_pcode":"20CAF062","adm2_pcode":"20CAF062002","loc_type":"POC","loc_subtype":"Planned Settlement","pop_type":"IDP","hierarchy_pcode":"20CAF062002005","footnote":" ","source":"UNHCR "}},{"type":"Feature","geometry":{"type":"Point","coordinates":[25.9575,5.3154]},"properties":{"iso3":"CAF","pcode":"CAFs033279","gis_name":"Mboki","name_alt":null,"adm1_pcode":"20CAF063","adm2_pcode":"20CAF063003","loc_type":"POC","loc_subtype":"Spontaneous Location","pop_type":"Refugee","hierarchy_pcode":"20CAF063003011","footnote":null,"source":"UNHCR CAF"}},{"type":"Feature","geometry":{"type":"Point","coordinates":[20.6626,5.7573]},"properties":{"iso3":"CAF","pcode":"CAFs033238","gis_name":"Site alternatif (Misca)","name_alt":" ","adm1_pcode":"20CAF043","adm2_pcode":"20CAF043002","loc_type":"POC","loc_subtype":"Planned Settlement","pop_type":"IDP","hierarchy_pcode":"20CAF043002016","footnote":" ","source":"IOM "}},{"type":"Feature","geometry":{"type":"Point","coordinates":[18.557,4.366]},"properties":{"iso3":"CAF","pcode":"CAFs000088","gis_name":"Bangui","name_alt":null,"adm1_pcode":"20CAF071","adm2_pcode":"20CAF071001","loc_type":"POC","loc_subtype":"Accomodation","pop_type":"Refugee","hierarchy_pcode":"20CAF071001009","footnote":null,"source":"UNHCR "}},{"type":"Feature","geometry":{"type":"Point","coordinates":[25.1453,5.033]},"properties":{"iso3":"CAF","pcode":"CAFs033262","gis_name":"Gendarmerie","name_alt":" ","adm1_pcode":"20CAF063","adm2_pcode":"20CAF063004","loc_type":"POC","loc_subtype":"Planned Settlement","pop_type":"IDP","hierarchy_pcode":"20CAF063004003","footnote":" ","source":"IOM "}},{"type":"Feature","geometry":{"type":"Point","coordinates":[19.1886,7.0067]},"properties":{"iso3":"CAF","pcode":"CAFs033254","gis_name":"Mbella","name_alt":" ","adm1_pcode":"20CAF042","adm2_pcode":"20CAF042001","loc_type":"POC","loc_subtype":"Planned Settlement","pop_type":"IDP","hierarchy_pcode":"20CAF042001011","footnote":" ","source":"UNHCR "}},{"type":"Feature","geometry":{"type":"Point","coordinates":[18.5054,6.8301]},"properties":{"iso3":"CAF","pcode":"CAFs033243","gis_name":"Kozoro 1","name_alt":" ","adm1_pcode":"20CAF032","adm2_pcode":"20CAF032003","loc_type":"POC","loc_subtype":"Planned Settlement","pop_type":"IDP","hierarchy_pcode":"20CAF032003016","footnote":" ","source":"UNHCR "}},{"type":"Feature","geometry":{"type":"Point","coordinates":[18.8383,7.2617]},"properties":{"iso3":"CAF","pcode":"CAFs005206","gis_name":"Konvi 1","name_alt":null,"adm1_pcode":"20CAF032","adm2_pcode":"20CAF032004","loc_type":"POC","loc_subtype":"Planned Settlement","pop_type":"IDP","hierarchy_pcode":"20CAF032004007","footnote":null,"source":"UNHCR "}},{"type":"Feature","geometry":{"type":"Point","coordinates":[26.4959,5.3991]},"properties":{"iso3":"CAF","pcode":"CAFs004580","gis_name":"Obo","name_alt":null,"adm1_pcode":"20CAF063","adm2_pcode":"20CAF063003","loc_type":"POC","loc_subtype":"Planned Settlement","pop_type":"Refugee","hierarchy_pcode":"20CAF063003003","footnote":null,"source":"UNHCR "}},{"type":"Feature","geometry":{"type":"Point","coordinates":[18.6137,7.6846]},"properties":{"iso3":"CAF","pcode":"CAFs033236","gis_name":"Site C (cite de la paix)","name_alt":" ","adm1_pcode":"20CAF032","adm2_pcode":"20CAF032004","loc_type":"POC","loc_subtype":"Planned Settlement","pop_type":"IDP","hierarchy_pcode":"20CAF032004013","footnote":" ","source":"UNHCR "}},{"type":"Feature","geometry":{"type":"Point","coordinates":[18.3444,7.0343]},"properties":{"iso3":"CAF","pcode":"CAFs005226","gis_name":"Lady B","name_alt":null,"adm1_pcode":"20CAF032","adm2_pcode":"20CAF032003","loc_type":"POC","loc_subtype":"Planned Settlement","pop_type":"IDP","hierarchy_pcode":"20CAF032003019","footnote":null,"source":"UNHCR "}},{"type":"Feature","geometry":{"type":"Point","coordinates":[21.9861,6.5526]},"properties":{"iso3":"CAF","pcode":"CAFs033253","gis_name":"Eglise CEBI 3","name_alt":" ","adm1_pcode":"20CAF052","adm2_pcode":"20CAF052001","loc_type":"POC","loc_subtype":"Planned Settlement","pop_type":"IDP","hierarchy_pcode":"20CAF052001007","footnote":" ","source":"IOM "}},{"type":"Feature","geometry":{"type":"Point","coordinates":[19.1722,6.9694]},"properties":{"iso3":"CAF","pcode":"CAFs033244","gis_name":"Lazare","name_alt":" ","adm1_pcode":"20CAF042","adm2_pcode":"20CAF042001","loc_type":"POC","loc_subtype":"Planned Settlement","pop_type":"IDP","hierarchy_pcode":"20CAF042001009","footnote":" ","source":"UNHCR "}},{"type":"Feature","geometry":{"type":"Point","coordinates":[18.7119,8.2185]},"properties":{"iso3":"CAF","pcode":"CAFs033240","gis_name":"Cite de la paix","name_alt":" ","adm1_pcode":"20CAF032","adm2_pcode":"20CAF032004","loc_type":"POC","loc_subtype":"Planned Settlement","pop_type":"IDP","hierarchy_pcode":"20CAF032004004","footnote":" ","source":"UNHCR "}},{"type":"Feature","geometry":{"type":"Point","coordinates":[26.4963,5.4024]},"properties":{"iso3":"CAF","pcode":"CAFs033260","gis_name":"Boyo","name_alt":" ","adm1_pcode":"20CAF063","adm2_pcode":"20CAF063003","loc_type":"POC","loc_subtype":"Planned Settlement","pop_type":"IDP","hierarchy_pcode":"20CAF063003004","footnote":" ","source":"IOM "}},{"type":"Feature","geometry":{"type":"Point","coordinates":[18.8378,7.2597]},"properties":{"iso3":"CAF","pcode":"CAFs005205","gis_name":"Vami 3","name_alt":null,"adm1_pcode":"20CAF032","adm2_pcode":"20CAF032004","loc_type":"POC","loc_subtype":"Planned Settlement","pop_type":"IDP","hierarchy_pcode":"20CAF032004014","footnote":null,"source":"UNHCR "}},{"type":"Feature","geometry":{"type":"Point","coordinates":[20.6745,5.7632]},"properties":{"iso3":"CAF","pcode":"CAFs033282","gis_name":"Bambari","name_alt":null,"adm1_pcode":"20CAF043","adm2_pcode":"20CAF043002","loc_type":"POC","loc_subtype":"Spontaneous Location","pop_type":"Refugee","hierarchy_pcode":"20CAF043002019","footnote":null,"source":"progres"}},{"type":"Feature","geometry":{"type":"Point","coordinates":[21.9668,6.5454]},"properties":{"iso3":"CAF","pcode":"CAFs033266","gis_name":"Pk3","name_alt":" ","adm1_pcode":"20CAF052","adm2_pcode":"20CAF052001","loc_type":"POC","loc_subtype":"Planned Settlement","pop_type":"IDP","hierarchy_pcode":"20CAF052001009","footnote":" ","source":"IOM "}},{"type":"Feature","geometry":{"type":"Point","coordinates":[23.909,4.9887]},"properties":{"iso3":"CAF","pcode":"CAFs033277","gis_name":"Site Elim","name_alt":" ","adm1_pcode":"20CAF062","adm2_pcode":"20CAF062005","loc_type":"POC","loc_subtype":"Planned Settlement","pop_type":"IDP","hierarchy_pcode":"20CAF062005006","footnote":" ","source":"IOM "}},{"type":"Feature","geometry":{"type":"Point","coordinates":[21.9878,6.5404]},"properties":{"iso3":"CAF","pcode":"CAFs033252","gis_name":"Eglise Catholique","name_alt":" ","adm1_pcode":"20CAF052","adm2_pcode":"20CAF052001","loc_type":"POC","loc_subtype":"Planned Settlement","pop_type":"IDP","hierarchy_pcode":"20CAF052001005","footnote":" ","source":"IOM "}},{"type":"Feature","geometry":{"type":"Point","coordinates":[19.3842,7.0318]},"properties":{"iso3":"CAF","pcode":"CAFs005203","gis_name":"Kaba","name_alt":null,"adm1_pcode":"20CAF042","adm2_pcode":"20CAF042001","loc_type":"POC","loc_subtype":"Planned Settlement","pop_type":"IDP","hierarchy_pcode":"20CAF042001008","footnote":null,"source":"GR14 "}},{"type":"Feature","geometry":{"type":"Point","coordinates":[18.4363,7.4591]},"properties":{"iso3":"CAF","pcode":"CAFs033237","gis_name":"Gbazara B","name_alt":" ","adm1_pcode":"20CAF032","adm2_pcode":"20CAF032001","loc_type":"POC","loc_subtype":"Planned Settlement","pop_type":"IDP","hierarchy_pcode":"20CAF032001017","footnote":" ","source":"UNHCR "}},{"type":"Feature","geometry":{"type":"Point","coordinates":[23.2976,10.4612]},"properties":{"iso3":"CAF","pcode":"CAFs990204","gis_name":"Am-Dafock","name_alt":null,"adm1_pcode":"20CAF053","adm2_pcode":"20CAF053001","loc_type":"POC","loc_subtype":"Unplanned Settlement","pop_type":"Refugee","hierarchy_pcode":"20CAF053001003","footnote":"Registration ongoing","source":"Filed Office"}},{"type":"Feature","geometry":{"type":"Point","coordinates":[18.5912,3.6428]},"properties":{"iso3":"CAF","pcode":"CAFs033283","gis_name":"Mongoumba","name_alt":null,"adm1_pcode":"20CAF012","adm2_pcode":"20CAF012005","loc_type":"POC","loc_subtype":"Spontaneous Location","pop_type":"Refugee","hierarchy_pcode":"20CAF012005003","footnote":null,"source":"progres"}},{"type":"Feature","geometry":{"type":"Point","coordinates":[18.6854,7.4608]},"properties":{"iso3":"CAF","pcode":"CAFs005223","gis_name":"Ouaki","name_alt":null,"adm1_pcode":"20CAF032","adm2_pcode":"20CAF032004","loc_type":"POC","loc_subtype":"Planned Settlement","pop_type":"IDP","hierarchy_pcode":"20CAF032004011","footnote":null,"source":"UNHCR "}},{"type":"Feature","geometry":{"type":"Point","coordinates":[23.9349,4.9655]},"properties":{"iso3":"CAF","pcode":"CAFs033234","gis_name":"Site B","name_alt":" ","adm1_pcode":"20CAF062","adm2_pcode":"20CAF062005","loc_type":"POC","loc_subtype":"Planned Settlement","pop_type":"IDP","hierarchy_pcode":"20CAF062005005","footnote":" ","source":"IOM "}},{"type":"Feature","geometry":{"type":"Point","coordinates":[21.9787,6.5424]},"properties":{"iso3":"CAF","pcode":"CAFs033261","gis_name":"Eglise CEBI 1","name_alt":" ","adm1_pcode":"20CAF052","adm2_pcode":"20CAF052001","loc_type":"POC","loc_subtype":"Planned Settlement","pop_type":"IDP","hierarchy_pcode":"20CAF052001006","footnote":" ","source":"IOM "}},{"type":"Feature","geometry":{"type":"Point","coordinates":[18.2665,6.5583]},"properties":{"iso3":"CAF","pcode":"CAFs005232","gis_name":"Gbigbi","name_alt":null,"adm1_pcode":"20CAF032","adm2_pcode":"20CAF032003","loc_type":"POC","loc_subtype":"Planned Settlement","pop_type":"IDP","hierarchy_pcode":"20CAF032003014","footnote":null,"source":"UNHCR "}},{"type":"Feature","geometry":{"type":"Point","coordinates":[26.4406,5.3107]},"properties":{"iso3":"CAF","pcode":"CAFs005188","gis_name":"Nguilinguili","name_alt":null,"adm1_pcode":"20CAF063","adm2_pcode":"20CAF063003","loc_type":"POC","loc_subtype":"Planned Settlement","pop_type":"IDP","hierarchy_pcode":"20CAF063003010","footnote":null,"source":"UNHCR "}},{"type":"Feature","geometry":{"type":"Point","coordinates":[18.2991,7.3109]},"properties":{"iso3":"CAF","pcode":"CAFs005243","gis_name":"Centre Bercail CR","name_alt":null,"adm1_pcode":"20CAF032","adm2_pcode":"20CAF032001","loc_type":"POC","loc_subtype":"Centre","pop_type":"IDP","hierarchy_pcode":"20CAF032001012","footnote":"Centre de regroupement","source":"GR14 "}},{"type":"Feature","geometry":{"type":"Point","coordinates":[18.1792,7.1759]},"properties":{"iso3":"CAF","pcode":"CAFs033250","gis_name":"Catolique","name_alt":" ","adm1_pcode":"20CAF032","adm2_pcode":"20CAF032001","loc_type":"POC","loc_subtype":"Planned Settlement","pop_type":"IDP","hierarchy_pcode":"20CAF032001011","footnote":" ","source":"UNHCR "}},{"type":"Feature","geometry":{"type":"Point","coordinates":[23.917,4.994]},"properties":{"iso3":"CAF","pcode":"CAFs033278","gis_name":"C","name_alt":" ","adm1_pcode":"20CAF062","adm2_pcode":"20CAF062005","loc_type":"POC","loc_subtype":"Spontaneous Location","pop_type":"IDP","hierarchy_pcode":"20CAF062005002","footnote":" ","source":"UNHCR "}},{"type":"Feature","geometry":{"type":"Point","coordinates":[20.6758,5.75]},"properties":{"iso3":"CAF","pcode":"CAFs033259","gis_name":"Saint Joseph","name_alt":" ","adm1_pcode":"20CAF043","adm2_pcode":"20CAF043002","loc_type":"POC","loc_subtype":"Planned Settlement","pop_type":"IDP","hierarchy_pcode":"20CAF043002015","footnote":" ","source":"UNHCR "}},{"type":"Feature","geometry":{"type":"Point","coordinates":[18.2873,7.3003]},"properties":{"iso3":"CAF","pcode":"CAFs005240","gis_name":"Base DRC (CR)","name_alt":null,"adm1_pcode":"20CAF032","adm2_pcode":"20CAF032001","loc_type":"POC","loc_subtype":"Centre","pop_type":"IDP","hierarchy_pcode":"20CAF032001008","footnote":"Centre de regroupement","source":"GR14 "}},{"type":"Feature","geometry":{"type":"Point","coordinates":[18.3463,7.0372]},"properties":{"iso3":"CAF","pcode":"CAFs005225","gis_name":"Lady A","name_alt":null,"adm1_pcode":"20CAF032","adm2_pcode":"20CAF032003","loc_type":"POC","loc_subtype":"Planned Settlement","pop_type":"IDP","hierarchy_pcode":"20CAF032003018","footnote":null,"source":"UNHCR "}},{"type":"Feature","geometry":{"type":"Point","coordinates":[20.6532,5.7679]},"properties":{"iso3":"CAF","pcode":"CAFs033276","gis_name":"Notre dame de la Victoire","name_alt":" ","adm1_pcode":"20CAF043","adm2_pcode":"20CAF043002","loc_type":"POC","loc_subtype":"Planned Settlement","pop_type":"IDP","hierarchy_pcode":"20CAF043002013","footnote":" ","source":"UNHCR "}},{"type":"Feature","geometry":{"type":"Point","coordinates":[18.7326,7.3953]},"properties":{"iso3":"CAF","pcode":"CAFs005224","gis_name":"Farazala A","name_alt":null,"adm1_pcode":"20CAF032","adm2_pcode":"20CAF032004","loc_type":"POC","loc_subtype":"Planned Settlement","pop_type":"IDP","hierarchy_pcode":"20CAF032004005","footnote":null,"source":"UNHCR "}},{"type":"Feature","geometry":{"type":"Point","coordinates":[20.6429,5.8353]},"properties":{"iso3":"CAF","pcode":"CAFs033268","gis_name":"Aviation Ecole","name_alt":" ","adm1_pcode":"20CAF043","adm2_pcode":"20CAF043002","loc_type":"POC","loc_subtype":"Planned Settlement","pop_type":"IDP","hierarchy_pcode":"20CAF043002007","footnote":" ","source":"UNHCR "}},{"type":"Feature","geometry":{"type":"Point","coordinates":[26.4695,5.3757]},"properties":{"iso3":"CAF","pcode":"CAFs033270","gis_name":"Gambo","name_alt":" ","adm1_pcode":"20CAF063","adm2_pcode":"20CAF063003","loc_type":"POC","loc_subtype":"Planned Settlement","pop_type":"IDP","hierarchy_pcode":"20CAF063003005","footnote":" ","source":"IOM "}},{"type":"Feature","geometry":{"type":"Point","coordinates":[26.4937,5.3868]},"properties":{"iso3":"CAF","pcode":"CAFs033232","gis_name":"Mboki","name_alt":" ","adm1_pcode":"20CAF063","adm2_pcode":"20CAF063003","loc_type":"POC","loc_subtype":"Planned Settlement","pop_type":"IDP","hierarchy_pcode":"20CAF063003009","footnote":" ","source":"IOM "}},{"type":"Feature","geometry":{"type":"Point","coordinates":[18.3156,7.4224]},"properties":{"iso3":"CAF","pcode":"CAFs033255","gis_name":"Ecole Bagga","name_alt":" ","adm1_pcode":"20CAF032","adm2_pcode":"20CAF032001","loc_type":"POC","loc_subtype":"Planned Settlement","pop_type":"IDP","hierarchy_pcode":"20CAF032001014","footnote":" ","source":"UNHCR "}},{"type":"Feature","geometry":{"type":"Point","coordinates":[18.855,7.2508]},"properties":{"iso3":"CAF","pcode":"CAFs005209","gis_name":"Mbaïndo","name_alt":null,"adm1_pcode":"20CAF042","adm2_pcode":"20CAF042001","loc_type":"POC","loc_subtype":"Planned Settlement","pop_type":"IDP","hierarchy_pcode":"20CAF042001010","footnote":null,"source":"UNHCR "}},{"type":"Feature","geometry":{"type":"Point","coordinates":[18.8356,7.2645]},"properties":{"iso3":"CAF","pcode":"CAFs005208","gis_name":"Lega","name_alt":null,"adm1_pcode":"20CAF032","adm2_pcode":"20CAF032004","loc_type":"POC","loc_subtype":"Planned Settlement","pop_type":"IDP","hierarchy_pcode":"20CAF032004008","footnote":null,"source":"UNHCR "}},{"type":"Feature","geometry":{"type":"Point","coordinates":[26.4638,5.4289]},"properties":{"iso3":"CAF","pcode":"CAFs005186","gis_name":"Gougbere","name_alt":null,"adm1_pcode":"20CAF063","adm2_pcode":"20CAF063003","loc_type":"POC","loc_subtype":"Planned Settlement","pop_type":"IDP","hierarchy_pcode":"20CAF063003006","footnote":null,"source":"UNHCR "}},{"type":"Feature","geometry":{"type":"Point","coordinates":[20.7308,5.3397]},"properties":{"iso3":"CAF","pcode":"CAFs033272","gis_name":"Cite maitrise (Club)","name_alt":" ","adm1_pcode":"20CAF043","adm2_pcode":"20CAF043002","loc_type":"POC","loc_subtype":"Planned Settlement","pop_type":"IDP","hierarchy_pcode":"20CAF043002009","footnote":" ","source":"UNHCR "}},{"type":"Feature","geometry":{"type":"Point","coordinates":[18.5247,4.3322]},"properties":{"iso3":"CAF","pcode":"CAFs033281","gis_name":"Bimbo","name_alt":null,"adm1_pcode":"20CAF011","adm2_pcode":"20CAF011001","loc_type":"POC","loc_subtype":"Spontaneous Location","pop_type":"Refugee","hierarchy_pcode":"20CAF011001005","footnote":null,"source":"UNHCR CAF"}},{"type":"Feature","geometry":{"type":"Point","coordinates":[21.3646,4.7728]},"properties":{"iso3":"CAF","pcode":"CAFs033274","gis_name":"Kongbo","name_alt":" ","adm1_pcode":"20CAF061","adm2_pcode":"20CAF061001","loc_type":"POC","loc_subtype":"Planned Settlement","pop_type":"IDP","hierarchy_pcode":"20CAF061001007","footnote":" ","source":"UNHCR "}},{"type":"Feature","geometry":{"type":"Point","coordinates":[20.6329,5.8009]},"properties":{"iso3":"CAF","pcode":"CAFs033267","gis_name":"MINUSCA PK 8","name_alt":" ","adm1_pcode":"20CAF043","adm2_pcode":"20CAF043002","loc_type":"POC","loc_subtype":"Planned Settlement","pop_type":"IDP","hierarchy_pcode":"20CAF043002011","footnote":" ","source":"UNHCR "}},{"type":"Feature","geometry":{"type":"Point","coordinates":[18.2893,7.3006]},"properties":{"iso3":"CAF","pcode":"CAFs005244","gis_name":"Maison des jeunes","name_alt":null,"adm1_pcode":"20CAF032","adm2_pcode":"20CAF032001","loc_type":"POC","loc_subtype":"Planned Settlement","pop_type":"IDP","hierarchy_pcode":"20CAF032001020","footnote":null,"source":"UNHCR "}},{"type":"Feature","geometry":{"type":"Point","coordinates":[19.179,6.9861]},"properties":{"iso3":"CAF","pcode":"CAFs033242","gis_name":"Minusca","name_alt":" ","adm1_pcode":"20CAF042","adm2_pcode":"20CAF042001","loc_type":"POC","loc_subtype":"Planned Settlement","pop_type":"IDP","hierarchy_pcode":"20CAF042001012","footnote":" ","source":"UNHCR "}},{"type":"Feature","geometry":{"type":"Point","coordinates":[23.2598,6.5081]},"properties":{"iso3":"CAF","pcode":"CAFs033247","gis_name":"Résidence du Sous-Préfet","name_alt":" ","adm1_pcode":"20CAF052","adm2_pcode":"20CAF052003","loc_type":"POC","loc_subtype":"Planned Settlement","pop_type":"IDP","hierarchy_pcode":"20CAF052003002","footnote":" ","source":"UNHCR "}},{"type":"Feature","geometry":{"type":"Point","coordinates":[18.7432,7.3804]},"properties":{"iso3":"CAF","pcode":"CAFs033269","gis_name":"Farazala B","name_alt":" ","adm1_pcode":"20CAF032","adm2_pcode":"20CAF032004","loc_type":"POC","loc_subtype":"Planned Settlement","pop_type":"IDP","hierarchy_pcode":"20CAF032004006","footnote":" ","source":"UNHCR "}},{"type":"Feature","geometry":{"type":"Point","coordinates":[26.4925,5.3931]},"properties":{"iso3":"CAF","pcode":"CAFs990203","gis_name":"Obo","name_alt":null,"adm1_pcode":"20CAF063","adm2_pcode":"20CAF063003","loc_type":"POC","loc_subtype":"Spontaneous Location","pop_type":"Refugee","hierarchy_pcode":"20CAF063003012","footnote":null,"source":"progress"}},{"type":"Feature","geometry":{"type":"Point","coordinates":[20.6513,8.4102]},"properties":{"iso3":"CAF","pcode":"CAFs005184","gis_name":"Ndelé","name_alt":null,"adm1_pcode":"20CAF051","adm2_pcode":"20CAF051002","loc_type":"POC","loc_subtype":"Spontaneous Location","pop_type":"Refugee","hierarchy_pcode":"20CAF051002003","footnote":null,"source":"UNHCR "}},{"type":"Feature","geometry":{"type":"Point","coordinates":[20.1082,4.9099]},"properties":{"iso3":"CAF","pcode":"CAFs033280","gis_name":"Toko-Kota","name_alt":null,"adm1_pcode":"20CAF043","adm2_pcode":"20CAF043005","loc_type":"POC","loc_subtype":"Planned Settlement","pop_type":"Refugee","hierarchy_pcode":"20CAF043005005","footnote":null,"source":"UNHCR CAF"}},{"type":"Feature","geometry":{"type":"Point","coordinates":[21.986,6.5405]},"properties":{"iso3":"CAF","pcode":"CAFs033251","gis_name":"Hopital de Bria","name_alt":" ","adm1_pcode":"20CAF052","adm2_pcode":"20CAF052001","loc_type":"POC","loc_subtype":"Planned Settlement","pop_type":"IDP","hierarchy_pcode":"20CAF052001008","footnote":" ","source":"IOM "}},{"type":"Feature","geometry":{"type":"Point","coordinates":[20.5908,5.7264]},"properties":{"iso3":"CAF","pcode":"CAFs004578","gis_name":"Pladama Ouaka","name_alt":"Bambari","adm1_pcode":"20CAF043","adm2_pcode":"20CAF043002","loc_type":"POC","loc_subtype":"Planned Settlement","pop_type":"Refugee","hierarchy_pcode":"20CAF043002006","footnote":"RE-2014-CAF","source":"UNHCR "}},{"type":"Feature","geometry":{"type":"Point","coordinates":[18.3208,7.3128]},"properties":{"iso3":"CAF","pcode":"CAFs033249","gis_name":"Ndoubou","name_alt":" ","adm1_pcode":"20CAF032","adm2_pcode":"20CAF032001","loc_type":"POC","loc_subtype":"Planned Settlement","pop_type":"IDP","hierarchy_pcode":"20CAF032001022","footnote":" ","source":"UNHCR "}},{"type":"Feature","geometry":{"type":"Point","coordinates":[18.4363,7.4591]},"properties":{"iso3":"CAF","pcode":"CAFs033245","gis_name":"Gbazara A","name_alt":" ","adm1_pcode":"20CAF032","adm2_pcode":"20CAF032001","loc_type":"POC","loc_subtype":"Planned Settlement","pop_type":"IDP","hierarchy_pcode":"20CAF032001016","footnote":" ","source":"UNHCR "}},{"type":"Feature","geometry":{"type":"Point","coordinates":[18.2966,7.3095]},"properties":{"iso3":"CAF","pcode":"CAFs005242","gis_name":"Lakouanga CR","name_alt":null,"adm1_pcode":"20CAF032","adm2_pcode":"20CAF032001","loc_type":"POC","loc_subtype":"Centre","pop_type":"IDP","hierarchy_pcode":"20CAF032001019","footnote":"Centre de regroupement","source":"GR14 "}},{"type":"Feature","geometry":{"type":"Point","coordinates":[18.2793,6.5026]},"properties":{"iso3":"CAF","pcode":"CAFs033246","gis_name":"Mission Catholique","name_alt":" ","adm1_pcode":"20CAF032","adm2_pcode":"20CAF032003","loc_type":"POC","loc_subtype":"Planned Settlement","pop_type":"IDP","hierarchy_pcode":"20CAF032003020","footnote":" ","source":"UNHCR "}},{"type":"Feature","geometry":{"type":"Point","coordinates":[20.5972,5.7027]},"properties":{"iso3":"CAF","pcode":"CAFs033248","gis_name":"Pladama Ouaka","name_alt":" ","adm1_pcode":"20CAF043","adm2_pcode":"20CAF043002","loc_type":"POC","loc_subtype":"Planned Settlement","pop_type":"IDP","hierarchy_pcode":"20CAF043002014","footnote":" ","source":"UNHCR "}},{"type":"Feature","geometry":{"type":"Point","coordinates":[24.4634,5.1137]},"properties":{"iso3":"CAF","pcode":"CAFs033233","gis_name":"Dembia","name_alt":" ","adm1_pcode":"20CAF062","adm2_pcode":"20CAF062005","loc_type":"POC","loc_subtype":"Spontaneous Location","pop_type":"IDP","hierarchy_pcode":"20CAF062005003","footnote":" ","source":"UNHCR "}},{"type":"Feature","geometry":{"type":"Point","coordinates":[18.2458,6.6688]},"properties":{"iso3":"CAF","pcode":"CAFs005227","gis_name":"Botombo","name_alt":null,"adm1_pcode":"20CAF032","adm2_pcode":"20CAF032003","loc_type":"POC","loc_subtype":"Planned Settlement","pop_type":"IDP","hierarchy_pcode":"20CAF032003006","footnote":null,"source":"UNHCR "}},{"type":"Feature","geometry":{"type":"Point","coordinates":[21.215,5.042]},"properties":{"iso3":"CAF","pcode":"CAFs033265","gis_name":"Site Catholique","name_alt":" ","adm1_pcode":"20CAF061","adm2_pcode":"20CAF061001","loc_type":"POC","loc_subtype":"Planned Settlement","pop_type":"IDP","hierarchy_pcode":"20CAF061001009","footnote":" ","source":"UNHCR "}},{"type":"Feature","geometry":{"type":"Point","coordinates":[18.3049,6.8797]},"properties":{"iso3":"CAF","pcode":"CAFs005228","gis_name":"Gbakaya","name_alt":null,"adm1_pcode":"20CAF032","adm2_pcode":"20CAF032003","loc_type":"POC","loc_subtype":"Planned Settlement","pop_type":"IDP","hierarchy_pcode":"20CAF032003013","footnote":null,"source":"UNHCR "}},{"type":"Feature","geometry":{"type":"Point","coordinates":[22.7863,5.6937]},"properties":{"iso3":"CAF","pcode":"CAFs033271","gis_name":"Perseverance","name_alt":" ","adm1_pcode":"20CAF062","adm2_pcode":"20CAF062001","loc_type":"POC","loc_subtype":"Spontaneous Location","pop_type":"IDP","hierarchy_pcode":"20CAF062001002","footnote":" ","source":"UNHCR "}},{"type":"Feature","geometry":{"type":"Point","coordinates":[21.3326,4.8829]},"properties":{"iso3":"CAF","pcode":"CAFs033235","gis_name":"Banda Deka","name_alt":" ","adm1_pcode":"20CAF061","adm2_pcode":"20CAF061001","loc_type":"POC","loc_subtype":"Spontaneous Location","pop_type":"IDP","hierarchy_pcode":"20CAF061001006","footnote":" ","source":"UNHCR "}}]}